{
  "ACX": {
    "ICAO": "ZUYI",
    "city": "兴义",
    "country": "中国",
    "lat": 25.085556,
    "lng": 104.95944,
    "name": "兴义机场"
  },
  "ADD": {
    "ICAO": "HAAB",
    "city": "亚的斯亚贝巴",
    "country": "埃塞俄比亚",
    "lat": 8.981730275810992,
    "lng": 38.7931904366343,
    "name": "亚的斯亚贝巴博莱机场"
  },
  "AHJ": {
    "ICAO": "ZUHY",
    "city": "红原",
    "country": "中国",
    "lat": 32.52916667,
    "lng": 102.3569444,
    "name": "阿坝红原机场"
  },
  "AKL": {
    "ICAO": "NZAA",
    "city": "奥克兰",
    "country": "新西兰",
    "lat": -37.008098602299995,
    "lng": 174.792007446,
    "name": "奥克兰国际机场 "
  },
  "AKU": {
    "ICAO": "ZWAK",
    "city": "阿克苏",
    "country": "中国",
    "lat": 41.259983,
    "lng": 80.29262,
    "name": "阿克苏温宿机场"
  },
  "AMS": {
    "ICAO": "EHAM",
    "city": "阿姆斯特丹",
    "country": "荷兰",
    "lat": 52.30893238898217,
    "lng": 4.764376932328117,
    "name": "思希普霍尔机场"
  },
  "ANC": {
    "ICAO": "PANC",
    "city": "安克雷奇",
    "country": "美国",
    "lat": 61.17289367453669,
    "lng": -149.9817251006328,
    "name": "安克雷奇国际机场"
  },
  "AOG": {
    "ICAO": "ZYAS",
    "city": "鞍山",
    "country": "中国",
    "lat": 41.103523,
    "lng": 123.857834,
    "name": "鞍山机场"
  },
  "AUH": {
    "ICAO": "OMAA",
    "city": "阿布扎比",
    "country": "阿联酋",
    "lat": 24.42722715297642,
    "lng": 54.646329322555786,
    "name": "阿布扎比国际机场"
  },
  "AYT": {
    "ICAO": "LTAI",
    "city": "安塔利亚",
    "country": "土耳其",
    "lat": 36.898701,
    "lng": 30.800501,
    "name": "安塔利亚机场"
  },
  "AZI": {
    "ICAO": "OMAD",
    "city": "阿布扎比",
    "country": "阿联酋",
    "lat": 24.428300857543945,
    "lng": 54.458099365234375,
    "name": "阿布扎比机场"
  },
  "BAV": {
    "ICAO": "ZBOW",
    "city": "包头",
    "country": "中国",
    "lat": 40.563328,
    "lng": 110.0009,
    "name": "包头二里半机场"
  },
  "BFJ": {
    "ICAO": "ZUBJ",
    "city": "毕节",
    "country": "中国",
    "lat": 27.267066,
    "lng": 105.472097,
    "name": "毕节机场"
  },
  "BHY": {
    "ICAO": "ZGBH",
    "city": "北海",
    "country": "中国",
    "lat": 21.540333,
    "lng": 109.28785,
    "name": "北海机场"
  },
  "BKI": {
    "ICAO": "WBKK",
    "city": "亚庇",
    "country": "马来西亚",
    "lat": 5.9372100830078125,
    "lng": 116.0510025024414,
    "name": "亚庇国际机场"
  },
  "BKK": {
    "ICAO": "VTBS",
    "city": "曼谷",
    "country": "泰国",
    "lat": 13.693062,
    "lng": 100.752045,
    "name": "曼谷素万那普国际机场"
  },
  "BPE": {
    "ICAO": "ZBDH",
    "city": "秦皇岛",
    "country": "中国",
    "lat": 39.666389,
    "lng": 119.058889,
    "name": "秦皇岛北戴河机场"
  },
  "BPX": {
    "ICAO": "ZUBD",
    "city": "昌都",
    "country": "中国",
    "lat": 30.555834,
    "lng": 97.10667,
    "name": "昌都邦达机场"
  },
  "BSD": {
    "ICAO": "ZPBS",
    "city": "保山",
    "country": "中国",
    "lat": 25.053333,
    "lng": 99.168333,
    "name": "保山云瑞机场"
  },
  "BWN": {
    "ICAO": "WBSB",
    "city": "文莱",
    "country": "文莱",
    "lat": 4.945475282276854,
    "lng": 114.93311902920937,
    "name": "文莱斯里巴加湾市国际机场"
  },
  "BZV": {
    "ICAO": "FCBB",
    "city": "布拉柴维尔",
    "country": "刚果",
    "lat": -4.251699924468994,
    "lng": 15.253000259399414,
    "name": "马亚马亚机场"
  },
  "CAN": {
    "ICAO": "ZGGG",
    "city": "广州",
    "country": "中国",
    "lat": 23.3891511573243,
    "lng": 113.29751655217066,
    "name": "广州白云机场"
  },
  "CDG": {
    "ICAO": "LFPG",
    "city": "巴黎",
    "country": "法国",
    "lat": 49.01442009693855,
    "lng": 2.541867767394573,
    "name": "巴黎戴高乐机场"
  },
  "CEB": {
    "ICAO": "RPVM",
    "city": "宿雾",
    "country": "菲律宾",
    "lat": 10.315875672729177,
    "lng": 123.97913450866376,
    "name": "麦克坦-宿雾国际机场"
  },
  "CEI": {
    "ICAO": "VTCT",
    "city": "清莱",
    "country": "泰国",
    "lat": 19.952299118,
    "lng": 99.88289642330001,
    "name": "清莱机场"
  },
  "CGD": {
    "ICAO": "ZGCD",
    "city": "常德",
    "country": "中国",
    "lat": 28.9188995361,
    "lng": 111.63999939,
    "name": "常德桃花源机场"
  },
  "CGO": {
    "ICAO": "ZHCC",
    "city": "郑州",
    "country": "中国",
    "lat": 34.52630271989567,
    "lng": 113.84183130284451,
    "name": "郑州新郑机场"
  },
  "CGQ": {
    "ICAO": "ZYCC",
    "city": "长春",
    "country": "中国",
    "lat": 43.99301147957697,
    "lng": 125.69045681299836,
    "name": "长春龙嘉机场"
  },
  "CIH": {
    "ICAO": "ZBCZ",
    "city": "长治",
    "country": "中国",
    "lat": 36.24588,
    "lng": 113.12158,
    "name": "长治机场"
  },
  "CJU": {
    "ICAO": "RKPC",
    "city": "济州",
    "country": "中国",
    "lat": 33.52471731503988,
    "lng": 126.49162940197242,
    "name": "济州机场"
  },
  "CKG": {
    "ICAO": "ZUCK",
    "city": "重庆",
    "country": "中国",
    "lat": 29.724042224168777,
    "lng": 106.63801970481096,
    "name": "重庆江北机场"
  },
  "CMB": {
    "ICAO": "VCBI",
    "city": "科伦坡",
    "country": "斯里兰卡",
    "lat": 7.178077105442211,
    "lng": 79.88525734215062,
    "name": "班达拉奈克国际机场"
  },
  "CNX": {
    "ICAO": "VTCC",
    "city": "清迈",
    "country": "泰国",
    "lat": 18.768847391967526,
    "lng": 98.96811812415933,
    "name": "清迈国际机场"
  },
  "CSX": {
    "ICAO": "ZGHA",
    "city": "长沙",
    "country": "中国",
    "lat": 28.189921861945066,
    "lng": 113.21405420325205,
    "name": "长沙黄花国际机场"
  },
  "CTU": {
    "ICAO": "ZUUU",
    "city": "成都",
    "country": "中国",
    "lat": 30.581071264746427,
    "lng": 103.95613648169501,
    "name": "成都双流国际机场"
  },
  "CXR": {
    "ICAO": "VVCR",
    "city": "金兰",
    "country": "越南",
    "lat": 11.993611,
    "lng": 109.225,
    "name": "金兰国际机场"
  },
  "CZX": {
    "ICAO": "ZSCG",
    "city": "常州",
    "country": "中国",
    "lat": 31.914116,
    "lng": 119.77976,
    "name": "常州奔牛机场"
  },
  "DAD": {
    "ICAO": "VVDN",
    "city": "岘港",
    "country": "越南",
    "lat": 16.05314414516696,
    "lng": 108.20270625793569,
    "name": "岘港国际机场"
  },
  "DAT": {
    "ICAO": "ZBDT",
    "city": "大同",
    "country": "中国",
    "lat": 40.05554,
    "lng": 113.48136,
    "name": "大同云冈机场"
  },
  "DAX": {
    "ICAO": "ZUDX",
    "city": "达州",
    "country": "中国",
    "lat": 31.135012,
    "lng": 107.42689,
    "name": "达州河市机场"
  },
  "DCY": {
    "ICAO": "ZUDC",
    "city": "稻城",
    "country": "中国",
    "lat": 29.3231,
    "lng": 100.0533,
    "name": "稻城亚丁机场"
  },
  "DEL": {
    "ICAO": "VIDP",
    "city": "德里",
    "country": "印度",
    "lat": 28.559203976058605,
    "lng": 77.0878362565332,
    "name": "英迪拉·甘地国际机场"
  },
  "DIG": {
    "ICAO": "ZPDQ",
    "city": "香格里拉",
    "country": "中国",
    "lat": 27.789722,
    "lng": 99.67778,
    "name": "迪庆香格里拉机场"
  },
  "DLC": {
    "ICAO": "ZYTL",
    "city": "大连",
    "country": "中国",
    "lat": 38.96157023002216,
    "lng": 121.53891378010117,
    "name": "大连周水子机场"
  },
  "DLU": {
    "ICAO": "ZPDL",
    "city": "大理",
    "country": "中国",
    "lat": 25.65135,
    "lng": 100.32316,
    "name": "大理机场"
  },
  "DMK": {
    "ICAO": "VTBD",
    "city": "曼谷",
    "country": "泰国",
    "lat": 13.920276601034733,
    "lng": 100.60257862650514,
    "name": "廊曼国际机场"
  },
  "DNH": {
    "ICAO": "ZLDH",
    "city": "敦煌",
    "country": "中国",
    "lat": 40.2,
    "lng": 94.683334,
    "name": "敦煌莫高煌机场"
  },
  "DOH": {
    "ICAO": "OTHH",
    "city": "多哈",
    "country": "卡塔尔",
    "lat": 25.268246131050645,
    "lng": 51.558548787654715,
    "name": "多哈国际机场"
  },
  "DOY": {
    "ICAO": "ZSDY",
    "city": "东营",
    "country": "中国",
    "lat": 37.2716,
    "lng": 118.2819,
    "name": "东营胜利机场"
  },
  "DPS": {
    "ICAO": "WADD",
    "city": "巴厘岛",
    "country": "印度尼西亚",
    "lat": -8.744757315956518,
    "lng": 115.16232296110661,
    "name": "巴厘岛国际机场"
  },
  "DQA": {
    "ICAO": "ZYDQ",
    "city": "大庆",
    "country": "中国",
    "lat": 46.75015,
    "lng": 125.147156,
    "name": "大庆萨尔图机场"
  },
  "DSN": {
    "ICAO": "ZBDS",
    "city": "鄂尔多斯",
    "country": "中国",
    "lat": 39.49672,
    "lng": 109.86053,
    "name": "鄂尔多斯伊金霍洛国际机场"
  },
  "DXB": {
    "ICAO": "OMDB",
    "city": "迪拜",
    "country": "阿联酋",
    "lat": 25.25256559381816,
    "lng": 55.35407691722429,
    "name": "迪拜国际机场"
  },
  "DYG": {
    "ICAO": "ZGDY",
    "city": "张家界",
    "country": "中国",
    "lat": 29.10712,
    "lng": 110.44569,
    "name": "张家界荷花机场"
  },
  "DYU": {
    "ICAO": "UTDD",
    "city": "杜尚别",
    "country": "塔吉克斯坦",
    "lat": 38.54894,
    "lng": 68.81728,
    "name": "杜尚别机场"
  },
  "FOC": {
    "ICAO": "ZSFZ",
    "city": "福州",
    "country": "中国",
    "lat": 25.931823314814313,
    "lng": 119.6680438209992,
    "name": "福州长乐国际机场"
  },
  "FRA": {
    "ICAO": "EDDF",
    "city": "法兰克福",
    "country": "德国",
    "lat": 50.05067708952074,
    "lng": 8.571822869076076,
    "name": "法兰克福梅茵机场"
  },
  "FRU": {
    "ICAO": "UCFM",
    "city": "比什凯克",
    "country": "吉尔吉斯斯坦",
    "lat": 43.055452723330326,
    "lng": 74.46880033990898,
    "name": "马纳斯国际机场"
  },
  "FUG": {
    "ICAO": "ZSFY",
    "city": "阜阳",
    "country": "中国",
    "lat": 32.882157,
    "lng": 115.734364,
    "name": "阜阳西关机场"
  },
  "FUK": {
    "ICAO": "RJFF",
    "city": "福冈",
    "country": "日本",
    "lat": 33.58481643325734,
    "lng": 130.44418954188373,
    "name": "福冈国际机场"
  },
  "GMP": {
    "ICAO": "RKSS",
    "city": "首尔",
    "country": "韩国",
    "lat": 37.55730053995078,
    "lng": 126.80239286027584,
    "name": "金浦国际机场"
  },
  "GOQ": {
    "ICAO": "ZLGM",
    "city": "格尔木",
    "country": "中国",
    "lat": 36.404633,
    "lng": 94.78931,
    "name": "格尔木机场"
  },
  "GUM": {
    "ICAO": "PGUM",
    "city": "关岛",
    "country": "美国",
    "lat": 13.4834003448,
    "lng": 144.796005249,
    "name": "关岛国际机场"
  },
  "GXH": {
    "ICAO": "ZLXH",
    "city": "甘南",
    "country": "中国",
    "lat": 34.8105,
    "lng": 102.6447,
    "name": "夏河甘南机场"
  },
  "GYS": {
    "ICAO": "ZUGU",
    "city": "广元",
    "country": "中国",
    "lat": 32.395,
    "lng": 105.69972,
    "name": "广元机场"
  },
  "GYU": {
    "ICAO": "ZLGY",
    "city": "固原",
    "country": "中国",
    "lat": 36.075325,
    "lng": 106.218025,
    "name": "固原六盘山机场"
  },
  "HAK": {
    "ICAO": "ZJHK",
    "city": "海口",
    "country": "中国",
    "lat": 19.941612,
    "lng": 110.45717,
    "name": "海口美兰机场"
  },
  "HAN": {
    "ICAO": "VVNB",
    "city": "河内",
    "country": "越南",
    "lat": 21.214559670724526,
    "lng": 105.80375943680576,
    "name": "河内内拜机场"
  },
  "HDG": {
    "ICAO": "ZBHD",
    "city": "邯郸",
    "country": "中国",
    "lat": 36.525833,
    "lng": 114.425,
    "name": "邯郸机场"
  },
  "HDY": {
    "ICAO": "VTSS",
    "city": "合艾",
    "country": "泰国",
    "lat": 6.93634231940664,
    "lng": 100.39375127467132,
    "name": "合艾机场"
  },
  "HET": {
    "ICAO": "ZBHH",
    "city": "呼和浩特",
    "country": "中国",
    "lat": 40.85406009065522,
    "lng": 111.81468182162591,
    "name": "呼和浩特白塔机场"
  },
  "HFE": {
    "ICAO": "ZSOF",
    "city": "合肥",
    "country": "中国",
    "lat": 31.77985767957784,
    "lng": 117.30419701588772,
    "name": "合肥骆岗机场"
  },
  "HGH": {
    "ICAO": "ZSHC",
    "city": "杭州",
    "country": "中国",
    "lat": 30.235186279041436,
    "lng": 120.43209737631294,
    "name": "杭州萧山国际机场"
  },
  "HIA": {
    "ICAO": "ZSSH",
    "city": "淮安",
    "country": "中国",
    "lat": 33.7772,
    "lng": 119.1478,
    "name": "淮安涟水机场"
  },
  "HIJ": {
    "ICAO": "RJOA",
    "city": "广岛",
    "country": "日本",
    "lat": 34.43611,
    "lng": 132.91945,
    "name": "广岛机场"
  },
  "HJJ": {
    "ICAO": "ZGCJ",
    "city": "怀化",
    "country": "中国",
    "lat": 27.4411111111,
    "lng": 109.7,
    "name": "怀化芷江机场"
  },
  "HKG": {
    "ICAO": "VHHH",
    "city": "香港",
    "country": "中国·香港",
    "lat": 22.315332828086753,
    "lng": 113.93501638737635,
    "name": "香港国际机场"
  },
  "HKT": {
    "ICAO": "VTSP",
    "city": "普吉",
    "country": "泰国",
    "lat": 8.107684759527347,
    "lng": 98.30603849005591,
    "name": "普吉国际机场"
  },
  "HLD": {
    "ICAO": "ZBLA",
    "city": "呼伦贝尔",
    "country": "中国",
    "lat": 49.2050018311,
    "lng": 119.824996948,
    "name": "呼伦贝尔东山国际机场"
  },
  "HLH": {
    "ICAO": "ZBUL",
    "city": "乌兰浩特",
    "country": "中国",
    "lat": 46.195333,
    "lng": 122.008333,
    "name": "乌兰浩特机场"
  },
  "HMI": {
    "ICAO": "ZWHM",
    "city": "哈密",
    "country": "中国",
    "lat": 42.8414001465,
    "lng": 93.6691970825,
    "name": "哈密机场"
  },
  "HND": {
    "ICAO": "RJTT",
    "city": "东京",
    "country": "日本",
    "lat": 35.54907,
    "lng": 139.78453,
    "name": "东京羽田机场"
  },
  "HNY": {
    "ICAO": "ZGHY",
    "city": "衡阳",
    "country": "中国",
    "lat": 26.9053,
    "lng": 112.627998,
    "name": "衡阳南岳机场"
  },
  "HRB": {
    "ICAO": "ZYHB",
    "city": "哈尔滨",
    "country": "中国",
    "lat": 45.62060117232452,
    "lng": 126.2369830308627,
    "name": "哈尔滨太平机场"
  },
  "HTN": {
    "ICAO": "ZWTN",
    "city": "和田",
    "country": "中国",
    "lat": 37.03850173950195,
    "lng": 79.86489868164062,
    "name": "和田机场"
  },
  "HUZ": {
    "ICAO": "ZGHZ",
    "city": "惠州",
    "country": "中国",
    "lat": 23.083332,
    "lng": 114.36667,
    "name": "惠州机场"
  },
  "HXD": {
    "ICAO": "ZLDL",
    "city": "德令哈",
    "country": "中国",
    "lat": 36.4025299635,
    "lng": 94.7893235453,
    "name": "德令哈机场"
  },
  "HYN": {
    "ICAO": "ZSLQ",
    "city": "台州",
    "country": "中国",
    "lat": 28.558096,
    "lng": 121.41675,
    "name": "台州路桥机场"
  },
  "ICN": {
    "ICAO": "RKSI",
    "city": "仁川",
    "country": "韩国",
    "lat": 37.449208862434624,
    "lng": 126.45087598079584,
    "name": "仁川国际机场"
  },
  "IKT": {
    "ICAO": "UIII",
    "city": "伊尔库茨克",
    "country": "俄罗斯",
    "lat": 52.2680015564,
    "lng": 104.388999939,
    "name": "伊尔库茨克机场"
  },
  "INC": {
    "ICAO": "ZLIC",
    "city": "银川",
    "country": "中国",
    "lat": 38.4818992615,
    "lng": 106.0090026855,
    "name": "银川机场"
  },
  "IQN": {
    "ICAO": "ZLQY",
    "city": "庆阳",
    "country": "中国",
    "lat": 35.799702,
    "lng": 107.602997,
    "name": "庆阳西峰机场"
  },
  "ISB": {
    "ICAO": "OPRN",
    "city": "伊斯兰堡",
    "country": "巴基斯坦",
    "lat": 33.607445750752625,
    "lng": 73.10079364718818,
    "name": "贝娜齐尔·布托国际机场"
  },
  "IXC": {
    "ICAO": "VICG",
    "city": "昌迪加尔",
    "country": "印度",
    "lat": 30.670724894966725,
    "lng": 76.80172611052417,
    "name": "昌迪加尔机场"
  },
  "JDZ": {
    "ICAO": "ZSJD",
    "city": "景德镇",
    "country": "印度",
    "lat": 29.3386001587,
    "lng": 117.176002502,
    "name": "景德镇机场"
  },
  "JED": {
    "ICAO": "OEJN",
    "city": "吉达",
    "country": "沙特阿拉伯",
    "lat": 21.670685787812808,
    "lng": 39.150499678044795,
    "name": "吉达国际机场"
  },
  "JFK": {
    "ICAO": "KJFK",
    "city": "纽约",
    "country": "美国",
    "lat": 40.63980103,
    "lng": -73.77890015,
    "name": "纽约约翰·菲茨杰拉德·肯尼迪国际机场"
  },
  "JGN": {
    "ICAO": "ZLJQ",
    "city": "酒泉",
    "country": "中国",
    "lat": 39.8568992615,
    "lng": 98.3414001465,
    "name": "酒泉嘉峪关机场"
  },
  "JGS": {
    "ICAO": "ZSGS",
    "city": "井冈山",
    "country": "中国",
    "lat": 26.899721,
    "lng": 114.7375,
    "name": "井冈山机场"
  },
  "JHG": {
    "ICAO": "ZPJH",
    "city": "景洪",
    "country": "中国",
    "lat": 21.973421,
    "lng": 100.76646,
    "name": "西双版纳嘎洒国际机场"
  },
  "JIC": {
    "ICAO": "ZLJC",
    "city": "金昌",
    "country": "中国",
    "lat": 38.541943,
    "lng": 102.34861,
    "name": "金昌机场"
  },
  "JIQ": {
    "ICAO": "ZUQJ",
    "city": "黔江",
    "country": "中国",
    "lat": 29.517557,
    "lng": 108.829185,
    "name": "黔江武陵山机场"
  },
  "JJN": {
    "ICAO": "ZSQZ",
    "city": "泉州",
    "country": "中国",
    "lat": 24.802809,
    "lng": 118.587296,
    "name": "泉州机场"
  },
  "JNG": {
    "ICAO": "ZSJG",
    "city": "济宁",
    "country": "中国",
    "lat": 35.416668,
    "lng": 116.53333,
    "name": "济宁曲阜机场"
  },
  "JNZ": {
    "ICAO": "ZYJZ",
    "city": "锦州",
    "country": "中国",
    "lat": 41.10139846801758,
    "lng": 121.06199645996094,
    "name": "锦州湾国际机场"
  },
  "JUH": {
    "ICAO": "ZSJH",
    "city": "池州",
    "country": "中国",
    "lat": 30.740278,
    "lng": 117.686667,
    "name": "池州九华山机场"
  },
  "JZH": {
    "ICAO": "ZUJZ",
    "city": "九寨沟",
    "country": "中国",
    "lat": 32.856667,
    "lng": 103.68306,
    "name": "九寨黄龙机场"
  },
  "KBV": {
    "ICAO": "VTSG",
    "city": "甲米",
    "country": "泰国",
    "lat": 8.097281,
    "lng": 98.98062,
    "name": "甲米国际机场"
  },
  "KGF": {
    "ICAO": "UAKK",
    "city": "卡拉干达",
    "country": "哈萨克斯坦",
    "lat": 49.67526,
    "lng": 73.32836,
    "name": "卡拉干达国际机场"
  },
  "KGT": {
    "ICAO": "ZUKD",
    "city": "康定",
    "country": "中国",
    "lat": 30.1575,
    "lng": 101.734722,
    "name": "康定机场"
  },
  "KHG": {
    "ICAO": "ZWSH",
    "city": "喀什",
    "country": "中国",
    "lat": 39.537968630625755,
    "lng": 76.01301480600748,
    "name": "喀什机场"
  },
  "KHH": {
    "ICAO": "RCKH",
    "city": "高雄",
    "country": "中国·台湾",
    "lat": 22.57170610544221,
    "lng": 120.34515634215063,
    "name": "高雄小港国际机场"
  },
  "KHN": {
    "ICAO": "ZSCN",
    "city": "南昌",
    "country": "中国",
    "lat": 28.862489120066552,
    "lng": 115.91197991860221,
    "name": "南昌昌北机场"
  },
  "KIX": {
    "ICAO": "RJBB",
    "city": "大阪",
    "country": "日本",
    "lat": 34.43479416292695,
    "lng": 135.24445977247638,
    "name": "大阪关西国际机场"
  },
  "KJA": {
    "ICAO": "UNKL",
    "city": "克拉斯诺亚尔斯克",
    "country": "俄罗斯",
    "lat": 56.18113,
    "lng": 92.48286,
    "name": "克拉斯诺亚尔斯克机场"
  },
  "KJH": {
    "ICAO": "ZUKJ",
    "city": "凯里",
    "country": "中国",
    "lat": null,
    "lng": null,
    "name": "凯里黄平机场"
  },
  "KLO": {
    "ICAO": "RPVK",
    "city": "卡利博",
    "country": "菲律宾",
    "lat": 11.687152,
    "lng": 122.38183,
    "name": "卡利博国际机场"
  },
  "KMG": {
    "ICAO": "ZPPP",
    "city": "昆明",
    "country": "中国",
    "lat": 24.99999611008102,
    "lng": 102.74211757882347,
    "name": "昆明长水机场"
  },
  "KOS": {
    "ICAO": "VDSV",
    "city": "西哈努克",
    "country": "柬埔寨",
    "lat": 10.580739,
    "lng": 103.63908,
    "name": "西哈努克国际机场"
  },
  "KOW": {
    "ICAO": "ZSGZ",
    "city": "赣州",
    "country": "中国",
    "lat": 25.851667,
    "lng": 114.776665,
    "name": "赣州机场"
  },
  "KRL": {
    "ICAO": "ZWKL",
    "city": "库尔勒",
    "country": "中国",
    "lat": 41.689896,
    "lng": 86.12434,
    "name": "库尔勒机场"
  },
  "KRY": {
    "ICAO": "ZWKM",
    "city": "克拉玛依",
    "country": "中国",
    "lat": 45.61667,
    "lng": 84.88333,
    "name": "克拉玛依机场"
  },
  "KTM": {
    "ICAO": "VNKT",
    "city": "加德满都",
    "country": "尼泊尔",
    "lat": 27.700281675160912,
    "lng": 85.357139531668,
    "name": "特里布万国际机场"
  },
  "KUL": {
    "ICAO": "WMKK",
    "city": "吉隆坡",
    "country": "马来西亚",
    "lat": 2.747512957918107,
    "lng": 101.71388632574273,
    "name": "吉隆坡国际机场"
  },
  "KWE": {
    "ICAO": "ZUGY",
    "city": "贵阳",
    "country": "中国",
    "lat": 26.544216,
    "lng": 106.79598,
    "name": "贵阳龙洞堡机场"
  },
  "KWL": {
    "ICAO": "ZGKL",
    "city": "桂林",
    "country": "中国",
    "lat": 25.217605525229324,
    "lng": 110.04689349777009,
    "name": "桂林两江机场"
  },
  "LAX": {
    "ICAO": "KLAX",
    "city": "洛杉矶",
    "country": "美国",
    "lat": 33.94417425435857,
    "lng": -118.40246854852198,
    "name": "洛杉矶机场"
  },
  "LCX": {
    "ICAO": "ZSLO",
    "city": "龙岩市",
    "country": "中国",
    "lat": 25.675556,
    "lng": 116.74556,
    "name": "龙岩冠豸山机场"
  },
  "LED": {
    "ICAO": "ULLI",
    "city": "圣彼得堡",
    "country": "俄罗斯",
    "lat": 59.80030059814453,
    "lng": 30.262500762939453,
    "name": "圣彼得堡国际机场"
  },
  "LGK": {
    "ICAO": "WMKL",
    "city": "浮罗交怡(兰卡威)",
    "country": "马来西亚",
    "lat": 6.329730033874512,
    "lng": 99.72869873046875,
    "name": "浮罗交怡国际机场"
  },
  "LHR": {
    "ICAO": "EGLL",
    "city": "伦敦",
    "country": "英国",
    "lat": 51.47099587999384,
    "lng": -0.453156652063309,
    "name": "伦敦希思罗国际机场"
  },
  "LHW": {
    "ICAO": "ZLLL",
    "city": "兰州",
    "country": "中国",
    "lat": 36.5152015686,
    "lng": 103.620002747,
    "name": "兰州中川国际机场"
  },
  "LJG": {
    "ICAO": "ZPLJ",
    "city": "丽江",
    "country": "中国",
    "lat": 26.683332,
    "lng": 100.25,
    "name": "丽江三义国际机场"
  },
  "LLB": {
    "ICAO": "ZULB",
    "city": "荔波",
    "country": "中国",
    "lat": null,
    "lng": null,
    "name": "荔波机场"
  },
  "LLN": {
    "ICAO": "",
    "city": "凯利拉",
    "country": "印度尼西亚",
    "lat": -3.75,
    "lng": 138.6666718,
    "name": "凯利拉机场"
  },
  "LLV": {
    "ICAO": "",
    "city": "吕梁",
    "country": "中国",
    "lat": 37.683333,
    "lng": 111.142778,
    "name": "吕梁大武机场"
  },
  "LPQ": {
    "ICAO": "VLLB",
    "city": "琅勃拉邦",
    "country": "老挝",
    "lat": 19.897055,
    "lng": 102.16371,
    "name": "琅勃拉邦国际机场"
  },
  "LUM": {
    "ICAO": "ZPLX",
    "city": "德宏",
    "country": "中国",
    "lat": 24.40528,
    "lng": 98.5319,
    "name": "德宏芒市机场"
  },
  "LXA": {
    "ICAO": "ZULS",
    "city": "拉萨",
    "country": "中国",
    "lat": 29.29369361231842,
    "lng": 90.9005610194027,
    "name": "拉萨贡嘎国际机场"
  },
  "LYA": {
    "ICAO": "ZHLY",
    "city": "洛阳",
    "country": "中国",
    "lat": 34.736362,
    "lng": 112.38541,
    "name": "洛阳北郊机场"
  },
  "LYG": {
    "ICAO": "ZSLG",
    "city": "连云港",
    "country": "中国",
    "lat": 34.565937,
    "lng": 118.87698,
    "name": "连云港白塔机场"
  },
  "LYI": {
    "ICAO": "ZSLY",
    "city": "临沂",
    "country": "中国",
    "lat": 35.047478,
    "lng": 118.40707,
    "name": "临沂机场"
  },
  "LZH": {
    "ICAO": "ZGZH",
    "city": "柳州",
    "country": "中国",
    "lat": 24.206156,
    "lng": 109.39843,
    "name": "柳州机场"
  },
  "LZO": {
    "ICAO": "ZULZ",
    "city": "泸州",
    "country": "中国",
    "lat": 28.844757,
    "lng": 105.37902,
    "name": "泸州机场"
  },
  "LZY": {
    "ICAO": "ZUNZ",
    "city": "林芝",
    "country": "中国",
    "lat": 29.309076,
    "lng": 94.335884,
    "name": "林芝米林机场"
  },
  "MAD": {
    "ICAO": "LEMD",
    "city": "马德里",
    "country": "西班牙",
    "lat": 40.46812827339225,
    "lng": -3.569026654588628,
    "name": "马德里机场"
  },
  "MEL": {
    "ICAO": "YMML",
    "city": "墨尔本",
    "country": "澳大利亚",
    "lat": -37.66994119678927,
    "lng": 144.84899809113125,
    "name": "墨尔本国际机场"
  },
  "MFM": {
    "ICAO": "VMMC",
    "city": "澳门",
    "country": "中国·澳门",
    "lat": 22.15765725296336,
    "lng": 113.57451294861951,
    "name": "澳门国际机场"
  },
  "MIG": {
    "ICAO": "ZUMY",
    "city": "绵阳",
    "country": "中国",
    "lat": 31.43111,
    "lng": 104.73805,
    "name": "绵阳南郊机场"
  },
  "MLE": {
    "ICAO": "VRMM",
    "city": "马累",
    "country": "马尔代夫",
    "lat": 4.188700903233721,
    "lng": 73.52739028368441,
    "name": "易卜拉欣·纳西尔国际机场"
  },
  "MNL": {
    "ICAO": "RPLL",
    "city": "马尼拉",
    "country": "菲律宾",
    "lat": 14.506832376296721,
    "lng": 121.00412208343747,
    "name": "尼诺·阿基诺国际机场"
  },
  "MRU": {
    "ICAO": "FIMP",
    "city": "毛里求斯",
    "country": "毛里求斯",
    "lat": -20.431756779321564,
    "lng": 57.67698600766355,
    "name": "毛里求斯国际机场"
  },
  "MYJ": {
    "ICAO": "RJOM",
    "city": "松山",
    "country": "日本",
    "lat": 33.822224,
    "lng": 132.70416,
    "name": "日本松山机场"
  },
  "NAO": {
    "ICAO": "ZUNC",
    "city": "南充",
    "country": "中国",
    "lat": 30.8,
    "lng": 106.066666,
    "name": "南充机场"
  },
  "NAY": {
    "ICAO": "ZBNY",
    "city": "北京",
    "country": "中国",
    "lat": 39.7825,
    "lng": 116.38778,
    "name": "北京南苑机场"
  },
  "NGB": {
    "ICAO": "ZSNB",
    "city": "宁波",
    "country": "中国",
    "lat": 29.820823190686056,
    "lng": 121.46181938848366,
    "name": "宁波栎社机场"
  },
  "NGO": {
    "ICAO": "RJGG",
    "city": "名古屋",
    "country": "日本",
    "lat": 34.85902969581623,
    "lng": 136.81477128682428,
    "name": "名古屋机场"
  },
  "NKG": {
    "ICAO": "ZSNJ",
    "city": "南京",
    "country": "中国",
    "lat": 31.73532492961766,
    "lng": 118.86610214690592,
    "name": "南京禄口机场"
  },
  "NLH": {
    "ICAO": "ZPNL",
    "city": "泸沽湖",
    "country": "中国",
    "lat": null,
    "lng": null,
    "name": "宁蒗泸沽湖机场"
  },
  "NNG": {
    "ICAO": "ZGNN",
    "city": "南宁",
    "country": "中国",
    "lat": 22.612037054178508,
    "lng": 108.16801227333096,
    "name": "南宁吴圩机场"
  },
  "NNY": {
    "ICAO": "ZHNY",
    "city": "南阳",
    "country": "中国",
    "lat": 32.9837,
    "lng": 112.61305,
    "name": "南阳机场"
  },
  "NRT": {
    "ICAO": "RJAA",
    "city": "东京",
    "country": "日本",
    "lat": 35.764056072782786,
    "lng": 140.3844017091791,
    "name": "新东京成田国际机场"
  },
  "NTG": {
    "ICAO": "ZSNT",
    "city": "南通",
    "country": "中国",
    "lat": 32.07292,
    "lng": 120.9756,
    "name": "南通机场"
  },
  "OAK": {
    "ICAO": "KOAK",
    "city": "奥克兰",
    "country": "美国",
    "lat": 37.71230369516912,
    "lng": -122.21326125786332,
    "name": "奥克兰国际机场"
  },
  "OVB": {
    "ICAO": "UNNT",
    "city": "新西伯利亚",
    "country": "俄罗斯",
    "lat": 55.00958471362636,
    "lng": 82.66715245258652,
    "name": "新西伯利亚机场"
  },
  "PEK": {
    "ICAO": "ZBAA",
    "city": "北京",
    "country": "中国",
    "lat": 40.07876633633102,
    "lng": 116.58817400466103,
    "name": "北京首都国际机场"
  },
  "PNH": {
    "ICAO": "VDPP",
    "city": "金边",
    "country": "柬埔寨",
    "lat": 11.546600341796875,
    "lng": 104.84400177001953,
    "name": "金边机场"
  },
  "PNQ": {
    "ICAO": "VAPO",
    "city": "浦那",
    "country": "印度",
    "lat": 18.579176611532837,
    "lng": 73.90898381100165,
    "name": "浦那国际机场"
  },
  "PQC": {
    "ICAO": "VVPQ",
    "city": "富国",
    "country": "越南",
    "lat": 10.1698,
    "lng": 103.9931,
    "name": "富国机场"
  },
  "PRG": {
    "ICAO": "KPRG",
    "city": "布拉格",
    "country": "捷克共和国",
    "lat": 50.10765117036714,
    "lng": 14.267484985407632,
    "name": "布拉格鲁济涅机场"
  },
  "PUS": {
    "ICAO": "RKPK",
    "city": "釜山",
    "country": "韩国",
    "lat": 35.17028406368295,
    "lng": 128.9488013790388,
    "name": "釜山金海机场"
  },
  "PVG": {
    "ICAO": "ZSPD",
    "city": "上海",
    "country": "中国",
    "lat": 31.152309029553294,
    "lng": 121.80151876057847,
    "name": "上海浦东国际机场"
  },
  "PZI": {
    "ICAO": "ZUZH",
    "city": "攀枝花",
    "country": "中国",
    "lat": 26.54,
    "lng": 101.799,
    "name": "攀枝花保安营机场"
  },
  "REP": {
    "ICAO": "VDSR",
    "city": "暹粒",
    "country": "柬埔寨",
    "lat": 13.408796969353801,
    "lng": 103.81578052811155,
    "name": "吴哥国际机场"
  },
  "RGN": {
    "ICAO": "VYYY",
    "city": "仰光",
    "country": "缅甸",
    "lat": 16.90115428182508,
    "lng": 96.13419461149468,
    "name": "仰光机场"
  },
  "RIZ": {
    "ICAO": "ZSRZ",
    "city": "日照",
    "country": "中国",
    "lat": 35.4045,
    "lng": 119.323,
    "name": "日照山字河机场"
  },
  "RKZ": {
    "ICAO": "ZURK",
    "city": "日喀则",
    "country": "中国",
    "lat": 29.351667,
    "lng": 89.306944,
    "name": "日喀则和平机场"
  },
  "SFO": {
    "ICAO": "KSFO",
    "city": "旧金山",
    "country": "美国",
    "lat": 37.61702508680535,
    "lng": -122.38347034444935,
    "name": "旧金山国际机场"
  },
  "SGN": {
    "ICAO": "VVTS",
    "city": "胡志明市",
    "country": "越南",
    "lat": 10.816300557187912,
    "lng": 106.66424614137476,
    "name": "胡志明市新山机场"
  },
  "SHA": {
    "ICAO": "QHHA",
    "city": "上海",
    "country": "中国",
    "lat": 31.187257431407843,
    "lng": 121.34118378856714,
    "name": "上海虹桥国际机场"
  },
  "SHE": {
    "ICAO": "ZYTX",
    "city": "沈阳",
    "country": "中国",
    "lat": 41.634789133958215,
    "lng": 123.4879744303385,
    "name": "沈阳桃仙机场"
  },
  "SHF": {
    "ICAO": "ZWHZ",
    "city": "石河子",
    "country": "中国",
    "lat": null,
    "lng": null,
    "name": "石河子花园机场"
  },
  "SIN": {
    "ICAO": "WSSS",
    "city": "新加坡",
    "country": "新加坡",
    "lat": 1.356160835281264,
    "lng": 103.98641388099333,
    "name": "新加坡樟宜国际机场"
  },
  "SJW": {
    "ICAO": "ZBSJ",
    "city": "石家庄",
    "country": "中国",
    "lat": 38.27814091311202,
    "lng": 114.6922665989016,
    "name": "石家庄大郭村机场"
  },
  "SPN": {
    "ICAO": "PGSN",
    "city": "塞班",
    "country": "美国",
    "lat": 15.121516719766413,
    "lng": 145.7236946586376,
    "name": "塞班国际机场"
  },
  "SQD": {
    "ICAO": "",
    "city": "上饶",
    "country": "中国",
    "lat": null,
    "lng": null,
    "name": "上饶三清山机场"
  },
  "SVO": {
    "ICAO": "UUEE",
    "city": "莫斯科",
    "country": "俄罗斯",
    "lat": 55.96644717251199,
    "lng": 37.41596903484135,
    "name": "莫斯科国际机场"
  },
  "SVX": {
    "ICAO": "USSS",
    "city": "叶卡捷琳堡",
    "country": "俄罗斯",
    "lat": 56.73224561204597,
    "lng": 60.80580334321738,
    "name": "叶卡捷琳堡机场"
  },
  "SWA": {
    "ICAO": "ZGOW",
    "city": "汕头",
    "country": "中国",
    "lat": 23.430237,
    "lng": 116.75859,
    "name": "揭阳机场"
  },
  "SYD": {
    "ICAO": "YSSY",
    "city": "悉尼",
    "country": "澳大利亚",
    "lat": -33.936583205771655,
    "lng": 151.16606730560102,
    "name": "悉尼史密斯机场"
  },
  "SYM": {
    "ICAO": "ZPSM",
    "city": "普洱",
    "country": "中国",
    "lat": 22.79657,
    "lng": 100.96222,
    "name": "普洱思茅机场"
  },
  "SYX": {
    "ICAO": "ZJSY",
    "city": "三亚",
    "country": "中国",
    "lat": 18.309095990859316,
    "lng": 109.40823949107957,
    "name": "三亚凤凰机场"
  },
  "SZX": {
    "ICAO": "ZGSZ",
    "city": "深圳",
    "country": "中国",
    "lat": 22.64650771478675,
    "lng": 113.81585275108512,
    "name": "深圳保安机场"
  },
  "TAO": {
    "ICAO": "ZSQD",
    "city": "青岛",
    "country": "中国",
    "lat": 36.267757808103866,
    "lng": 120.3806859490605,
    "name": "青岛流亭机场"
  },
  "TCZ": {
    "ICAO": "ZPTC",
    "city": "腾冲",
    "country": "中国",
    "lat": 24.939379,
    "lng": 98.482025,
    "name": "腾冲驼峰机场"
  },
  "TEN": {
    "ICAO": "ZUTR",
    "city": "铜仁",
    "country": "中国",
    "lat": 27.883333,
    "lng": 109.308889,
    "name": "铜仁凤凰机场"
  },
  "TLQ": {
    "ICAO": "ZWTL",
    "city": "吐鲁番",
    "country": "中国",
    "lat": 43.0308,
    "lng": 89.0987,
    "name": "吐鲁番交河机场"
  },
  "TLS": {
    "ICAO": "LFBO",
    "city": "图卢兹",
    "country": "法国",
    "lat": 43.63046256616009,
    "lng": 1.373509185511527,
    "name": "图卢兹机场"
  },
  "TNA": {
    "ICAO": "ZSJN",
    "city": "济南",
    "country": "中国",
    "lat": 36.85769,
    "lng": 117.20688,
    "name": "济南遥墙机场"
  },
  "TPE": {
    "ICAO": "RCTP",
    "city": "台北",
    "country": "中国·台湾",
    "lat": 25.076741104334637,
    "lng": 121.23137045332327,
    "name": "台北桃园机场"
  },
  "TSA": {
    "ICAO": "RCSS",
    "city": "台北",
    "country": "中国·台湾",
    "lat": 25.06279,
    "lng": 121.551926,
    "name": "台北松山机场"
  },
  "TSN": {
    "ICAO": "ZBTJ",
    "city": "天津",
    "country": "中国",
    "lat": 39.12946099090075,
    "lng": 117.35272315991853,
    "name": "天津张贵庄机场"
  },
  "TVS": {
    "ICAO": "ZBSN",
    "city": "唐山",
    "country": "中国",
    "lat": 39.717444,
    "lng": 118.002389,
    "name": "唐山三女河机场"
  },
  "TXN": {
    "ICAO": "ZSTX",
    "city": "黄山",
    "country": "中国",
    "lat": 29.72962,
    "lng": 118.25646,
    "name": "黄山屯溪机场"
  },
  "TYN": {
    "ICAO": "ZBYN",
    "city": "太原",
    "country": "中国",
    "lat": 37.754511779151215,
    "lng": 112.62589153931525,
    "name": "太原武宿机场"
  },
  "UCB": {
    "ICAO": "",
    "city": "乌兰察布",
    "country": "中国",
    "lat": 41.1238623164,
    "lng": 113.1112062799,
    "name": "乌兰察布机场"
  },
  "URC": {
    "ICAO": "ZWWW",
    "city": "乌鲁木齐",
    "country": "中国",
    "lat": 43.898338219365286,
    "lng": 87.46712984878084,
    "name": "乌鲁木齐地窝堡国际机场"
  },
  "URT": {
    "ICAO": "VTSB",
    "city": "苏拉塔尼",
    "country": "泰国",
    "lat": 9.133865,
    "lng": 99.143196,
    "name": "苏拉塔尼机场"
  },
  "USM": {
    "ICAO": "VTSM",
    "city": "苏梅岛",
    "country": "泰国",
    "lat": 9.555315,
    "lng": 100.0628,
    "name": "苏梅岛机场"
  },
  "UTP": {
    "ICAO": "VTBU",
    "city": "罗勇",
    "country": "泰国",
    "lat": 12.685293091266386,
    "lng": 101.00020929048034,
    "name": "芭提雅乌塔保国际机场"
  },
  "UYN": {
    "ICAO": "ZLYL",
    "city": "榆林",
    "country": "中国",
    "lat": 38.274155,
    "lng": 109.73038,
    "name": "榆林榆阳机场"
  },
  "WDS": {
    "ICAO": "ZHSY",
    "city": "十堰",
    "country": "中国",
    "lat": 32.591667,
    "lng": 110.907778,
    "name": "十堰武当山机场"
  },
  "WEH": {
    "ICAO": "ZSWH",
    "city": "威海",
    "country": "中国",
    "lat": 37.18709945678711,
    "lng": 122.22899627685547,
    "name": "威海大水泊国际机场"
  },
  "WMT": {
    "ICAO": "",
    "city": "遵义",
    "country": "中国",
    "lat": null,
    "lng": null,
    "name": "遵义茅台机场"
  },
  "WNH": {
    "ICAO": "ZPWS",
    "city": "文山",
    "country": "中国",
    "lat": 23.375833,
    "lng": 104.243056,
    "name": "广西文山机场"
  },
  "WNZ": {
    "ICAO": "ZSWZ",
    "city": "温州",
    "country": "中国",
    "lat": 27.91566,
    "lng": 120.84738,
    "name": "温州永强机场"
  },
  "WUA": {
    "ICAO": "ZBUH",
    "city": "乌海",
    "country": "中国",
    "lat": 39.7934,
    "lng": 106.7993,
    "name": "乌海机场"
  },
  "WUH": {
    "ICAO": "ZHHH",
    "city": "武汉",
    "country": "中国",
    "lat": 30.776598,
    "lng": 114.209625,
    "name": "武汉天河机场"
  },
  "WUX": {
    "ICAO": "ZSWX",
    "city": "无锡",
    "country": "中国",
    "lat": 31.49289,
    "lng": 120.42438,
    "name": "无锡硕放机场"
  },
  "WXN": {
    "ICAO": "ZUWX",
    "city": "万州",
    "country": "中国",
    "lat": 30.799679,
    "lng": 108.42695,
    "name": "万州机场"
  },
  "XFN": {
    "ICAO": "ZHXF",
    "city": "襄阳",
    "country": "中国",
    "lat": 32.151558,
    "lng": 112.28627,
    "name": "襄阳刘集机场"
  },
  "XIC": {
    "ICAO": "ZUXC",
    "city": "西昌",
    "country": "中国",
    "lat": 27.981922,
    "lng": 102.187645,
    "name": "西昌机场"
  },
  "XIY": {
    "ICAO": "ZLXY",
    "city": "西安",
    "country": "中国",
    "lat": 34.442939105442214,
    "lng": 108.75581134215064,
    "name": "西安咸阳机场"
  },
  "XMN": {
    "ICAO": "ZSAM",
    "city": "厦门",
    "country": "中国",
    "lat": 24.537192570557004,
    "lng": 118.12696884672026,
    "name": "厦门高崎机场"
  },
  "XNN": {
    "ICAO": "ZLXN",
    "city": "西宁",
    "country": "中国",
    "lat": 36.525322,
    "lng": 102.03754,
    "name": "西宁机场"
  },
  "XSP": {
    "ICAO": "WSSL",
    "city": "实里达",
    "country": "新加坡",
    "lat": 1.366667,
    "lng": 103.96667,
    "name": "新加坡实里达机场"
  },
  "XUZ": {
    "ICAO": "ZSXZ",
    "city": "徐州",
    "country": "新加坡",
    "lat": 34.052925,
    "lng": 117.55408,
    "name": "徐州观音机场"
  },
  "YBP": {
    "ICAO": "ZUYB",
    "city": "宜宾",
    "country": "新加坡",
    "lat": 28.797659,
    "lng": 104.54395,
    "name": "宜宾机场"
  },
  "YCU": {
    "ICAO": "ZBYC",
    "city": "运城",
    "country": "新加坡",
    "lat": 35.018,
    "lng": 110.993,
    "name": "运城机场"
  },
  "YIC": {
    "ICAO": "ZSYC",
    "city": "宜春",
    "country": "新加坡",
    "lat": 27.8025,
    "lng": 114.3062,
    "name": "宜春明月山机场"
  },
  "YIH": {
    "ICAO": "ZHYC",
    "city": "宜昌",
    "country": "新加坡",
    "lat": 30.549934,
    "lng": 111.478935,
    "name": "宜昌机场"
  },
  "YIN": {
    "ICAO": "ZWYN",
    "city": "伊宁",
    "country": "新加坡",
    "lat": 43.952,
    "lng": 81.33144,
    "name": "伊宁机场"
  },
  "YIW": {
    "ICAO": "ZSYW",
    "city": "义乌",
    "country": "中国",
    "lat": 29.344563,
    "lng": 120.02881,
    "name": "义乌机场"
  },
  "YKH": {
    "ICAO": "ZYYK",
    "city": "营口",
    "country": "中国",
    "lat": 40.542524,
    "lng": 122.3586,
    "name": "营口兰旗机场"
  },
  "YKS": {
    "ICAO": "UEEE",
    "city": "雅库茨克",
    "country": "俄罗斯",
    "lat": 62.085606,
    "lng": 129.75006,
    "name": "雅库茨克机场"
  },
  "YNT": {
    "ICAO": "ZSYT",
    "city": "烟台",
    "country": "中国",
    "lat": 37.407704472692394,
    "lng": 121.37204741777312,
    "name": "烟台莱山机场"
  },
  "YNZ": {
    "ICAO": "ZSYN",
    "city": "盐城",
    "country": "中国",
    "lat": 33.43468,
    "lng": 120.20418,
    "name": "盐城"
  },
  "YTY": {
    "ICAO": "ZSYA",
    "city": "扬州",
    "country": "中国",
    "lat": 32.5634,
    "lng": 119.7198,
    "name": "扬州"
  },
  "YUS": {
    "ICAO": "ZLYS",
    "city": "玉树",
    "country": "中国",
    "lat": 32.837975,
    "lng": 97.03748,
    "name": "玉树"
  },
  "YVR": {
    "ICAO": "CYVR",
    "city": "温哥华",
    "country": "加拿大",
    "lat": 49.19355903957153,
    "lng": -123.18086700381177,
    "name": "温哥华国际机场"
  },
  "YZY": {
    "ICAO": "ZLZY",
    "city": "张掖",
    "country": "中国",
    "lat": 38.8075,
    "lng": 100.660835,
    "name": "张掖甘州机场"
  },
  "ZAT": {
    "ICAO": "ZPZT",
    "city": "昭通",
    "country": "中国",
    "lat": 27.316668,
    "lng": 103.8,
    "name": "昭通机场"
  },
  "ZGC": {
    "ICAO": "ZLLL",
    "city": "兰州",
    "country": "中国",
    "lat": 36.5152015686,
    "lng": 103.620002747,
    "name": "兰州中川国际机场"
  },
  "ZHA": {
    "ICAO": "ZGZJ",
    "city": "湛江",
    "country": "中国",
    "lat": 21.214727,
    "lng": 110.36272,
    "name": "湛江机场"
  },
  "ZQZ": {
    "ICAO": "ZBZJ",
    "city": "张家口",
    "country": "中国",
    "lat": 40.73861111,
    "lng": 114.9302778,
    "name": "张家口宁远机场"
  },
  "ZRH": {
    "ICAO": "LSZH",
    "city": "苏黎世",
    "country": "瑞士",
    "lat": 47.464698791504,
    "lng": 8.5491695404053,
    "name": "苏黎世机场"
  },
  "ZUH": {
    "ICAO": "ZGSD",
    "city": "珠海",
    "country": "中国",
    "lat": 22.011787,
    "lng": 113.3706,
    "name": "珠海机场"
  },
  "ZYI": {
    "ICAO": "ZUZY",
    "city": "遵义",
    "country": "中国",
    "lat": 27.5895,
    "lng": 107.0007,
    "name": "遵义新舟机场"
  }
}